{"Info":{"TotalResults":2065,"PageNumber":1,"Message":null},"Events":[{"Id":3064646,"Date":"2017-11-16T20:00:00","Venue":{"Id":151240,"Name":"Garcia's at The Capitol Theatre","Address":"149 Westchester Avenue","City":"Port Chester","State":"New York","StateCode":"NY","Country":"US","CountryCode":"US","ZipCode":"10573","Url":"http://www.thecapitoltheatre.com/garcias-list/","Latitude":41.001397,"Longitude":-73.6654978},"Artists":[{"Id":65944,"Name":"Leslie Mendelson"}],"TicketUrl":"http://www.shareasale.com/r.cfm?u=460319&b=234786&m=27601&afftrack=&urllink=https://www.ticketfly.com/purchase/event/1578307/tfly?utm_medium=api"},{"Id":3028924,"Date":"2017-11-16T20:00:00","Venue":{"Id":123211,"Name":"Saint Vitus ","Address":"1120 Manhattan Avenue","City":"Brooklyn","State":"New York","StateCode":"NY","Country":"US","CountryCode":"US","ZipCode":"11222","Url":"","Latitude":40.736769,"Longitude":-73.954998},"Artists":[{"Id":44348,"Name":"Unsane"}],"TicketUrl":"http://www.shareasale.com/r.cfm?u=460319&b=234786&m=27601&afftrack=&urllink=https://www.ticketfly.com/purchase/event/1539850/tfly?utm_medium=api"},{"Id":3050477,"Date":"2017-11-16T20:00:00","Venue":{"Id":133076,"Name":"Villain ","Address":"48 North 3rd Street ","City":"Brooklyn","State":"New York","StateCode":"NY","Country":"US","CountryCode":"US","ZipCode":"11211","Url":"","Latitude":40.7178305,"Longitude":-73.9638665},"Artists":[{"Id":95816,"Name":"XXYYXX"},{"Id":99554,"Name":"Chrome Sparks"}],"TicketUrl":"http://www.shareasale.com/r.cfm?u=460319&b=234786&m=27601&afftrack=&urllink=https://www.ticketfly.com/purchase/event/1561679/tfly?utm_medium=api"},{"Id":3077304,"Date":"2017-11-16T20:00:00","Venue":{"Id":97760,"Name":"The Bowery Electric","Address":"327 Bowery","City":"New York","State":"New York","StateCode":"NY","Country":"US","CountryCode":"US","ZipCode":"10003","Url":"http://www.theboweryelectric.com","Latitude":40.72569,"Longitude":-73.991691},"Artists":[{"Id":99420,"Name":"Stone Giant"}],"TicketUrl":"http://www.shareasale.com/r.cfm?u=460319&b=234786&m=27601&afftrack=&urllink=https://www.ticketfly.com/purchase/event/1592454/tfly?utm_medium=api"},{"Id":3055518,"Date":"2017-11-16T20:00:00","Venue":{"Id":94149,"Name":"Bar Matchless","Address":"557 Manhattan Ave (@ Driggs) ","City":"Brooklyn","State":"New York","StateCode":"NY","Country":"US","CountryCode":"US","ZipCode":"11222","Url":"http://www.myspace.com/matchlessbar","Latitude":0.0,"Longitude":0.0},"Artists":[{"Id":46168,"Name":"Stinking Lizaveta"}],"TicketUrl":"http://www.shareasale.com/r.cfm?u=460319&b=234786&m=27601&afftrack=&urllink=https://www.ticketfly.com/purchase/event/1570443/tfly?utm_medium=api"},{"Id":3043530,"Date":"2017-11-16T20:30:00","Venue":{"Id":93653,"Name":"Brooklyn Bowl","Address":"61 Wythe Avenue","City":"Brooklyn","State":"New York","StateCode":"NY","Country":"US","CountryCode":"US","ZipCode":"11211","Url":"http://www.brooklynbowl.com","Latitude":40.721876,"Longitude":-73.957676},"Artists":[{"Id":85294,"Name":"Escort"},{"Id":91962,"Name":"Superhuman Happiness"}],"TicketUrl":"http://www.shareasale.com/r.cfm?u=460319&b=234786&m=27601&afftrack=&urllink=https://www.ticketfly.com/purchase/event/1554623/tfly?utm_medium=api"},{"Id":3042615,"Date":"2017-11-16T20:30:00","Venue":{"Id":159694,"Name":"Elsewhere","Address":"599 Johnson Ave","City":"Brooklyn","State":"New York","StateCode":"NY","Country":"US","CountryCode":"US","ZipCode":"11237","Url":"http://www.elsewherebrooklyn.com/","Latitude":0.0,"Longitude":0.0},"Artists":[{"Id":90021,"Name":"Total Freedom"},{"Id":114121,"Name":"Palm"},{"Id":114603,"Name":"Jlin"}],"TicketUrl":"https://www.eventbrite.com/e/jlin-elsewhere-tickets-37367339719"},{"Id":3041914,"Date":"2017-11-16T20:30:00","Venue":{"Id":4331,"Name":"Maxwell's","Address":"1039 Washington Street","City":"Hoboken","State":"New Jersey","StateCode":"NJ","Country":"US","CountryCode":"US","ZipCode":"07030","Url":"http://www.maxwellsnj.com","Latitude":40.749005,"Longitude":-74.027329},"Artists":[{"Id":32127,"Name":"Albert Cummings"}],"TicketUrl":"http://www.shareasale.com/r.cfm?u=460319&b=234786&m=27601&afftrack=&urllink=https://www.ticketfly.com/purchase/event/1555106/tfly?utm_medium=api"},{"Id":3041913,"Date":"2017-11-16T20:30:00","Venue":{"Id":19598,"Name":"Birdland","Address":"315 West 44th Street","City":"New York","State":"New York","StateCode":"NY","Country":"US","CountryCode":"US","ZipCode":"10036","Url":"http://www.birdlandjazz.com","Latitude":40.758783,"Longitude":-73.989395},"Artists":[{"Id":50689,"Name":"Diane Schuur"}],"TicketUrl":"http://www.shareasale.com/r.cfm?u=460319&b=234786&m=27601&afftrack=&urllink=https://www.ticketfly.com/purchase/event/1554777/tfly?utm_medium=api"},{"Id":3032389,"Date":"2017-11-16T21:00:00","Venue":{"Id":83673,"Name":"The Bell House","Address":"149 7th Street","City":"Brooklyn","State":"New York","StateCode":"NY","Country":"US","CountryCode":"US","ZipCode":"11215","Url":"http://www.thebellhouseny.com/","Latitude":40.6729902,"Longitude":-73.9906767},"Artists":[{"Id":88995,"Name":"Hot Snakes"},{"Id":114990,"Name":"Savak"}],"TicketUrl":"http://www.shareasale.com/r.cfm?u=460319&b=234786&m=27601&afftrack=&urllink=https://www.ticketfly.com/purchase/event/1543357/tfly?utm_medium=api"},{"Id":3055418,"Date":"2017-11-16T22:00:00","Venue":{"Id":55646,"Name":"Union Pool","Address":"484 Union Ave","City":"Brooklyn","State":"New York","StateCode":"NY","Country":"US","CountryCode":"US","ZipCode":"11211","Url":"  http://www.myspace.com/unionpool  ","Latitude":40.714871,"Longitude":-73.951757},"Artists":[{"Id":75574,"Name":"JD Samson"}],"TicketUrl":"http://www.shareasale.com/r.cfm?u=460319&b=234786&m=27601&afftrack=&urllink=https://www.ticketfly.com/purchase/event/1571100/tfly?utm_medium=api"},{"Id":3057512,"Date":"2017-11-16T22:00:00","Venue":{"Id":114485,"Name":"Rockwood Music Hall Stage 2","Address":"196 Allen St","City":"New York","State":"New York","StateCode":"NY","Country":"US","CountryCode":"US","ZipCode":"10002","Url":"http://www.rockwoodmusichall.com","Latitude":40.7224788,"Longitude":-73.9886667},"Artists":[{"Id":92601,"Name":"Louis Cato"},{"Id":97406,"Name":"Old Salt Union"}],"TicketUrl":"http://www.shareasale.com/r.cfm?u=460319&b=234786&m=27601&afftrack=&urllink=https://www.ticketfly.com/purchase/event/1574355/tfly?utm_medium=api"},{"Id":3033013,"Date":"2017-11-16T22:00:00","Venue":{"Id":136229,"Name":"Output ","Address":"74 Wythe Avenue","City":"Brooklyn","State":"New York","StateCode":"NY","Country":"US","CountryCode":"US","ZipCode":"11201","Url":"http://outputclub.com/","Latitude":40.7223328,"Longitude":-73.9577161},"Artists":[{"Id":71732,"Name":"Umek"}],"TicketUrl":"http://www.shareasale.com/r.cfm?u=460319&b=234786&m=27601&afftrack=&urllink=https://www.ticketfly.com/purchase/event/1543960/tfly?utm_medium=api"},{"Id":3077315,"Date":"2017-11-17T00:00:00","Venue":{"Id":133100,"Name":"Stage 48","Address":"605 W.48th Street","City":"New York","State":"New York","StateCode":"NY","Country":"US","CountryCode":"US","ZipCode":"10019","Url":"","Latitude":40.765076,"Longitude":-73.995986},"Artists":[{"Id":126775,"Name":"DJ Envy"}],"TicketUrl":"http://ticketmaster.evyy.net/c/252938/264167/4272?u=https%3A%2F%2Fwww.ticketweb.com%2Fevent%2Fpower-live-fridays-stage-48-tickets%2F7851765%3FREFERRAL_ID%3Dtmfeed"},{"Id":3054140,"Date":"2017-11-17T00:00:00","Venue":{"Id":141636,"Name":"American Beauty NYC","Address":"251 West 30th Street","City":"New York","State":"New York","StateCode":"NY","Country":"US","CountryCode":"US","ZipCode":"10001","Url":"","Latitude":0.0,"Longitude":0.0},"Artists":[{"Id":61055,"Name":"Mihali Savoulidis"},{"Id":113236,"Name":"Michelangelo Carubba"},{"Id":117830,"Name":"Beau Sasser"},{"Id":123910,"Name":"Danny Mayer"}],"TicketUrl":"http://ticketmaster.evyy.net/c/252938/264167/4272?u=http%3A%2F%2Fwww.ticketweb.com%2Ft3%2Fsale%2FSaleEventDetail%3Fdispatch%3DloadSelectionData%26eventId%3D7724705%26REFERRAL_ID%3Dtmfeed"},{"Id":3063012,"Date":"2017-11-17T00:00:00","Venue":{"Id":122758,"Name":"La Boom","Address":"56-15 Northern Blvd.","City":" New York ","State":"New York","StateCode":"NY","Country":"US","CountryCode":"US","ZipCode":"11377","Url":"","Latitude":40.753759,"Longitude":-73.90416},"Artists":[{"Id":61841,"Name":"Frank Reyes"}],"TicketUrl":"http://ticketmaster.evyy.net/c/252938/264167/4272?u=http%3A%2F%2Fwww.ticketweb.com%2Ft3%2Fsale%2FSaleEventDetail%3Fdispatch%3DloadSelectionData%26eventId%3D7768585%26REFERRAL_ID%3Dtmfeed"},{"Id":2900556,"Date":"2017-11-17T00:00:00","Venue":{"Id":125156,"Name":"Marlin Room At Webster Hall ","Address":"125 E 11th St","City":"New York","State":"New York","StateCode":"NY","Country":"US","CountryCode":"US","ZipCode":"10003","Url":"","Latitude":40.7315654,"Longitude":-73.9891834},"Artists":[{"Id":98273,"Name":"The Bayside Tigers"},{"Id":116880,"Name":"Saved by the 90s"}],"TicketUrl":"http://ticketmaster.evyy.net/c/252938/264167/4272?u=http%3A%2F%2Fwww.ticketweb.com%2Ft3%2Fsale%2FSaleEventDetail%3Fdispatch%3DloadSelectionData%26eventId%3D7071475%26REFERRAL_ID%3Dtmfeed"},{"Id":3053055,"Date":"2017-11-17T00:00:00","Venue":{"Id":98523,"Name":"Knitting Factory","Address":"361 Metropolitan Ave","City":"Brooklyn","State":"New York","StateCode":"NY","Country":"US","CountryCode":"US","ZipCode":"11211","Url":"http://bk.knittingfactory.com","Latitude":40.7142,"Longitude":-73.9557},"Artists":[{"Id":95663,"Name":"JMSN"}],"TicketUrl":"http://ticketmaster.evyy.net/c/252938/264167/4272?u=http%3A%2F%2Fwww.ticketweb.com%2Ft3%2Fsale%2FSaleEventDetail%3Fdispatch%3DloadSelectionData%26eventId%3D7671215%26REFERRAL_ID%3Dtmfeed"},{"Id":2964667,"Date":"2017-11-17T00:00:00","Venue":{"Id":114570,"Name":"Isaac Stern Auditorium @ Carnegie Hall","Address":"881 7th Ave","City":"New York","State":"New York","StateCode":"NY","Country":"US","CountryCode":"US","ZipCode":"10019","Url":"http://www.carnegiehall.org","Latitude":40.7650146484375,"Longitude":-73.9798965454102},"Artists":[{"Id":71476,"Name":"New York Pops"}],"TicketUrl":""},{"Id":3020422,"Date":"2017-11-17T00:00:00","Venue":{"Id":160856,"Name":"Brooklyn Steel","Address":"319 Frost Street","City":"Brooklyn","State":"New York","StateCode":"NY","Country":"US","CountryCode":"US","ZipCode":"11222","Url":"","Latitude":0.0,"Longitude":0.0},"Artists":[{"Id":35296,"Name":"Minus the Bear"},{"Id":35419,"Name":"Silversun Pickups"}],"TicketUrl":"http://ticketmaster.evyy.net/c/252938/264167/4272?u=http%3A%2F%2Fsilversunpickups.shop.ticketstoday.com%2Fbasket.aspx%3FAction%3DAddTickets%26eventId%3D179162"},{"Id":3038156,"Date":"2017-11-17T00:00:00","Venue":{"Id":143238,"Name":"Rough Trade NYC","Address":"N 9th","City":"Brooklyn","State":"New York","StateCode":"NY","Country":"US","CountryCode":"US","ZipCode":"11211","Url":"","Latitude":0.0,"Longitude":0.0},"Artists":[{"Id":28448,"Name":"Stars"}],"TicketUrl":""},{"Id":3029956,"Date":"2017-11-17T00:00:00","Venue":{"Id":162526,"Name":"Walter Kerr Theatre","Address":"219 W 48th St","City":"New York","State":"New York","StateCode":"NY","Country":"US","CountryCode":"US","ZipCode":"10036","Url":"","Latitude":0.0,"Longitude":0.0},"Artists":[{"Id":12385,"Name":"Bruce Springsteen"}],"TicketUrl":"http://brucespringsteen.net/broadway/"},{"Id":3008997,"Date":"2017-11-17T00:00:00","Venue":{"Id":47548,"Name":"PlayStation Theater","Address":"1515 Broadway","City":"New York","State":"New York","StateCode":"NY","Country":"US","CountryCode":"US","ZipCode":"10036","Url":"http://www.playstationtheater.com/","Latitude":40.7576,"Longitude":-73.9859},"Artists":[{"Id":83809,"Name":"Dash Berlin"}],"TicketUrl":""},{"Id":3042982,"Date":"2017-11-17T00:00:00","Venue":{"Id":21353,"Name":"The Jazz Standard","Address":"116 E. 27th Street","City":"New York","State":"New York","StateCode":"NY","Country":"US","CountryCode":"US","ZipCode":"10016","Url":"http://www.jazzstandard.net","Latitude":40.742683,"Longitude":-73.983957},"Artists":[{"Id":44897,"Name":"Brian Blade"}],"TicketUrl":"http://ticketmaster.evyy.net/c/252938/264167/4272?u=http%3A%2F%2Fwww.ticketweb.com%2Ft3%2Fsale%2FSaleEventDetail%3Fdispatch%3DloadSelectionData%26eventId%3D7678535%26REFERRAL_ID%3Dtmfeed"},{"Id":3007919,"Date":"2017-11-17T00:00:00","Venue":{"Id":20120,"Name":"Tilles Center","Address":"720 Northern Boulevard","City":"Brookville","State":"New York","StateCode":"NY","Country":"US","CountryCode":"US","ZipCode":"11548","Url":"http://www.tillescenter.org/","Latitude":40.819857,"Longitude":-73.599368},"Artists":[{"Id":44314,"Name":"Crystal Gayle"},{"Id":62454,"Name":"Lee Greenwood"}],"TicketUrl":"http://ticketmaster.evyy.net/c/252938/264167/4272?u=http%3A%2F%2Fwww.ticketmaster.com%2Fevent%2F000052D5E17B66C8"},{"Id":3019869,"Date":"2017-11-17T00:00:00","Venue":{"Id":19767,"Name":"Tarrytown Music Hall","Address":"13 Main Street","City":"Tarrytown","State":"New York","StateCode":"NY","Country":"US","CountryCode":"US","ZipCode":"10591","Url":"http://www.tarrytownmusichall.org/","Latitude":41.076567,"Longitude":-73.859465},"Artists":[{"Id":95390,"Name":"The Hit Men"}],"TicketUrl":""},{"Id":3056667,"Date":"2017-11-17T00:00:00","Venue":{"Id":44163,"Name":"NYCB Theatre at Westbury","Address":"960 Brush Hollow Road","City":"Westbury","State":"New York","StateCode":"NY","Country":"US","CountryCode":"US","ZipCode":"11590","Url":"http://www.livenation.com/NYCB-Theatre-at-Westbury-tickets-Westbury/venue/141","Latitude":40.768133,"Longitude":-73.566303},"Artists":[{"Id":32155,"Name":"Leela James"},{"Id":45432,"Name":"Tank"}],"TicketUrl":"http://ticketmaster.evyy.net/c/252938/264167/4272?u=http%3A%2F%2Fconcerts.livenation.com%2Fevent%2F0000533DB2A16C3A"},{"Id":3068855,"Date":"2017-11-17T00:00:00","Venue":{"Id":63416,"Name":"Highline Ballroom","Address":"431 West 16th Street","City":"New York","State":"New York","StateCode":"NY","Country":"US","CountryCode":"US","ZipCode":"10013","Url":"http://www.highlineballroom.com/","Latitude":40.743443,"Longitude":-74.007091},"Artists":[{"Id":103422,"Name":"Mary Lambert"}],"TicketUrl":""},{"Id":3021207,"Date":"2017-11-17T00:00:00","Venue":{"Id":69551,"Name":"Terminal 5","Address":"610 W 56th St","City":"New York","State":"New York","StateCode":"NY","Country":"US","CountryCode":"US","ZipCode":"10019","Url":"http://www.terminal5nyc.com/","Latitude":40.76893,"Longitude":-73.990321},"Artists":[{"Id":30055,"Name":"Thrice"},{"Id":42210,"Name":"Circa Survive"},{"Id":61374,"Name":"Balance and Composure"}],"TicketUrl":""},{"Id":3024846,"Date":"2017-11-17T00:00:00","Venue":{"Id":61749,"Name":"St. George Theater","Address":"35 Hyatt Street","City":"Staten Island","State":"New York","StateCode":"NY","Country":"US","CountryCode":"US","ZipCode":"10301","Url":"http://www.stgeorgetheater.com","Latitude":40.641893,"Longitude":-74.076965},"Artists":[{"Id":46668,"Name":"Tony Orlando    "}],"TicketUrl":"http://ticketmaster.evyy.net/c/252938/264167/4272?u=http%3A%2F%2Fwww.ticketmaster.com%2Fevent%2F000052F9C6A34DAD"},{"Id":2980371,"Date":"2017-11-17T00:00:00","Venue":{"Id":61189,"Name":"The Gramercy Theatre","Address":"127 East 23rd Street","City":"New York","State":"New York","StateCode":"NY","Country":"US","CountryCode":"US","ZipCode":"10010","Url":"http://venue.thegramercytheatre.com/","Latitude":40.7423,"Longitude":-73.983},"Artists":[{"Id":8256,"Name":"Carbon Leaf"},{"Id":49557,"Name":"Liz Longley"}],"TicketUrl":"http://ticketmaster.evyy.net/c/252938/264167/4272?u=http%3A%2F%2Fconcerts.livenation.com%2Fevent%2F000052A8163C9EAE"},{"Id":3005489,"Date":"2017-11-17T00:00:00","Venue":{"Id":13422,"Name":"Music Hall Of Williamsburg","Address":"66 North 6th Street","City":"Brooklyn","State":"New York","StateCode":"NY","Country":"US","CountryCode":"US","ZipCode":"11211","Url":"http://www.musichallofwilliamsburg.com/","Latitude":40.719128,"Longitude":-73.961285},"Artists":[{"Id":100433,"Name":"Turnover"},{"Id":106621,"Name":"Emma Ruth Rundle"},{"Id":106792,"Name":"Elvis Depressedly"}],"TicketUrl":""},{"Id":3005963,"Date":"2017-11-17T00:00:00","Venue":{"Id":12112,"Name":"Warsaw","Address":"261 Driggs Avenue","City":"Brooklyn","State":"New York","StateCode":"NY","Country":"US","CountryCode":"US","ZipCode":"11222","Url":"http://www.polishnationalhome.com/warsaw.html ","Latitude":40.722655,"Longitude":-73.948164},"Artists":[{"Id":55222,"Name":"Angus and Julia Stone"}],"TicketUrl":"http://ticketmaster.evyy.net/c/252938/264167/4272?u=http%3A%2F%2Fwww.ticketweb.com%2Ft3%2Fsale%2FSaleEventDetail%3Fdispatch%3DloadSelectionData%26eventId%3D7518965%26REFERRAL_ID%3Dtmfeed"},{"Id":2999580,"Date":"2017-11-17T00:00:00","Venue":{"Id":2945,"Name":"Hammerstein Ballroom","Address":"311 W. 34th Street","City":"New York","State":"New York","StateCode":"NY","Country":"US","CountryCode":"US","ZipCode":"10001","Url":"http://www.ticketmaster.com/venue/280","Latitude":40.752442,"Longitude":-73.993854},"Artists":[{"Id":30050,"Name":"CKY"},{"Id":45127,"Name":"HIM"},{"Id":113284,"Name":"3Teeth"}],"TicketUrl":"http://ticketmaster.evyy.net/c/252938/264167/4272?u=http%3A%2F%2Fwww.ticketmaster.com%2Fevent%2F000052C9D569882A"},{"Id":3024844,"Date":"2017-11-17T00:00:00","Venue":{"Id":5554,"Name":"B.B. King Blues Club & Grill","Address":"237 West 42nd Street","City":"New York","State":"New York","StateCode":"NY","Country":"US","CountryCode":"US","ZipCode":"10036","Url":"http://bbkingblues.com","Latitude":40.75659,"Longitude":-73.988102},"Artists":[{"Id":2364,"Name":"Spyro Gyra"}],"TicketUrl":"http://ticketmaster.evyy.net/c/252938/264167/4272?u=http%3A%2F%2Fwww.ticketmaster.com%2Fevent%2F000052ABE4E7867E"},{"Id":3046970,"Date":"2017-11-17T00:00:00","Venue":{"Id":5033,"Name":"The Stone Pony","Address":"913 Ocean Avenue","City":"Asbury Park","State":"New Jersey","StateCode":"NJ","Country":"US","CountryCode":"US","ZipCode":"07712","Url":"http://www.stoneponyonline.com","Latitude":40.224593,"Longitude":-73.998579},"Artists":[{"Id":8724,"Name":"The Yams"},{"Id":76789,"Name":"Start Making Sense"}],"TicketUrl":"http://ticketmaster.evyy.net/c/252938/264167/4272?u=http%3A%2F%2Fwww.ticketmaster.com%2Fevent%2F0000532CAF042DB1"},{"Id":2982813,"Date":"2017-11-17T00:00:00","Venue":{"Id":14213,"Name":"New Jersey Performing Arts Center","Address":"One Center Street","City":"Newark","State":"New Jersey","StateCode":"NJ","Country":"US","CountryCode":"US","ZipCode":"07102","Url":"http://www.njpac.org","Latitude":40.73972,"Longitude":-74.167861},"Artists":[{"Id":48539,"Name":"Wallace Roney "}],"TicketUrl":"http://ticketmaster.evyy.net/c/252938/264167/4272?u=http%3A%2F%2Fwww.ticketmaster.com%2Fevent%2F000052AB5FE809E7"},{"Id":3012658,"Date":"2017-11-17T00:00:00","Venue":{"Id":45765,"Name":"Bergen Performing Arts Center","Address":"30 North Van Brunt Street","City":"Englewood","State":"New Jersey","StateCode":"NJ","Country":"US","CountryCode":"US","ZipCode":"07631","Url":"http://www.bergenpac.org/","Latitude":40.896679,"Longitude":-73.973815},"Artists":[{"Id":29756,"Name":"Regina Spektor"}],"TicketUrl":"http://ticketmaster.evyy.net/c/252938/264167/4272?u=http%3A%2F%2Fwww.ticketmaster.com%2Fevent%2F000052E7D4AF6285"},{"Id":3032062,"Date":"2017-11-17T00:00:00","Venue":{"Id":29635,"Name":"Starland Ballroom","Address":"570 Jernee Mill Road","City":"Sayreville","State":"New Jersey","StateCode":"NJ","Country":"US","CountryCode":"US","ZipCode":"08872","Url":"http://www.starlandballroom.com","Latitude":40.437108,"Longitude":-74.350159},"Artists":[{"Id":114104,"Name":"Kane Brown"}],"TicketUrl":""},{"Id":3055241,"Date":"2017-11-17T00:00:00","Venue":{"Id":80650,"Name":"The Wellmont Theater","Address":"5 Seymour St","City":"Montclair","State":"New Jersey","StateCode":"NJ","Country":"US","CountryCode":"US","ZipCode":"07042","Url":"http://www.thewellmonttheater.com/","Latitude":40.8126,"Longitude":-74.2163},"Artists":[{"Id":117298,"Name":"Famous Dex"}],"TicketUrl":"http://ticketmaster.evyy.net/c/252938/264167/4272?u=http%3A%2F%2Fconcerts.livenation.com%2Fevent%2F020053250B1C93E8"},{"Id":3067234,"Date":"2017-11-17T00:00:00","Venue":{"Id":54,"Name":"Brooklyn Academy of Music","Address":"30 Lafayette Ave ","City":"Brooklyn","State":"New York","StateCode":"NY","Country":"US","CountryCode":"US","ZipCode":"11217","Url":"http://www.bam.org/","Latitude":40.643812,"Longitude":-74.095677},"Artists":[{"Id":26826,"Name":"John Cale"}],"TicketUrl":""},{"Id":2990976,"Date":"2017-11-17T00:00:00","Venue":{"Id":412,"Name":"Iridium Jazz Club","Address":"1650 Broadway ","City":"New York","State":"New York","StateCode":"NY","Country":"US","CountryCode":"US","ZipCode":"10001","Url":"http://www.iridiumjazzclub.com/","Latitude":40.750073,"Longitude":-73.988076},"Artists":[{"Id":32795,"Name":"Bettye LaVette"}],"TicketUrl":"http://theiridium.com/"},{"Id":3013658,"Date":"2017-11-17T00:00:00","Venue":{"Id":124,"Name":"Irving Plaza","Address":"17 Irving Place","City":"New York","State":"New York","StateCode":"NY","Country":"US","CountryCode":"US","ZipCode":"10003","Url":"http://venue.irvingplaza.com/","Latitude":40.735117,"Longitude":-73.988345},"Artists":[{"Id":39019,"Name":"The Infamous Stringdusters"},{"Id":88990,"Name":"Cris Jacobs"}],"TicketUrl":"http://ticketmaster.evyy.net/c/252938/264167/4272?u=http%3A%2F%2Fconcerts.livenation.com%2Fevent%2F000052CFDFBB574B"},{"Id":3014385,"Date":"2017-11-17T00:00:00","Venue":{"Id":45,"Name":"Beacon Theatre","Address":"2124 Broadway","City":"New York","State":"New York","StateCode":"NY","Country":"US","CountryCode":"US","ZipCode":"10023","Url":"http://www.beacontheatre.com/","Latitude":40.78051,"Longitude":-73.981469},"Artists":[{"Id":8959,"Name":"King Crimson"}],"TicketUrl":"http://ticketmaster.evyy.net/c/252938/264167/4272?u=http%3A%2F%2Fwww.ticketmaster.com%2Fevent%2F3B0052E71B502CA0"},{"Id":3067591,"Date":"2017-11-17T00:00:00","Venue":{"Id":147123,"Name":"Bea McNally's Irish Pub","Address":"109 Grand Ave","City":"Hackettstown","State":"New Jersey","StateCode":"NJ","Country":"US","CountryCode":"US","ZipCode":"07840","Url":"http://www.beamcnallys.com","Latitude":0.0,"Longitude":0.0},"Artists":[{"Id":63002,"Name":"Moondogs"}],"TicketUrl":""},{"Id":3041915,"Date":"2017-11-17T17:15:00","Venue":{"Id":19598,"Name":"Birdland","Address":"315 West 44th Street","City":"New York","State":"New York","StateCode":"NY","Country":"US","CountryCode":"US","ZipCode":"10036","Url":"http://www.birdlandjazz.com","Latitude":40.758783,"Longitude":-73.989395},"Artists":[{"Id":50689,"Name":"Diane Schuur"},{"Id":84783,"Name":"The Birdland Big Band"}],"TicketUrl":"http://www.shareasale.com/r.cfm?u=460319&b=234786&m=27601&afftrack=&urllink=https://www.ticketfly.com/purchase/event/1554767/tfly?utm_medium=api"},{"Id":3039761,"Date":"2017-11-17T18:00:00","Venue":{"Id":1521,"Name":"The Stanhope House","Address":"PO Box 404","City":"Stanhope","State":"New Jersey","StateCode":"NJ","Country":"US","CountryCode":"US","ZipCode":"07874","Url":"http://www.stanhopehouse.com","Latitude":40.921743,"Longitude":-74.70044},"Artists":[{"Id":42041,"Name":"Sponge"}],"TicketUrl":"http://www.shareasale.com/r.cfm?u=460319&b=234786&m=27601&afftrack=&urllink=https://www.ticketfly.com/purchase/event/1551386/tfly?utm_medium=api"},{"Id":3042619,"Date":"2017-11-17T18:30:00","Venue":{"Id":159694,"Name":"Elsewhere","Address":"599 Johnson Ave","City":"Brooklyn","State":"New York","StateCode":"NY","Country":"US","CountryCode":"US","ZipCode":"11237","Url":"http://www.elsewherebrooklyn.com/","Latitude":0.0,"Longitude":0.0},"Artists":[{"Id":39303,"Name":"P.O.S."},{"Id":107715,"Name":"Tove Lo"},{"Id":118757,"Name":"Transit22"},{"Id":118894,"Name":"Marcellus Pittman"}],"TicketUrl":"https://www.eventbrite.com/e/pos-elsewhere-tickets-37367398896"},{"Id":3051726,"Date":"2017-11-17T18:30:00","Venue":{"Id":97760,"Name":"The Bowery Electric","Address":"327 Bowery","City":"New York","State":"New York","StateCode":"NY","Country":"US","CountryCode":"US","ZipCode":"10003","Url":"http://www.theboweryelectric.com","Latitude":40.72569,"Longitude":-73.991691},"Artists":[{"Id":44347,"Name":"Emery "},{"Id":109752,"Name":"The Funeral Portrait"}],"TicketUrl":"http://www.shareasale.com/r.cfm?u=460319&b=234786&m=27601&afftrack=&urllink=https://www.ticketfly.com/purchase/event/1566177/tfly?utm_medium=api"},{"Id":3038811,"Date":"2017-11-17T19:00:00","Venue":{"Id":114485,"Name":"Rockwood Music Hall Stage 2","Address":"196 Allen St","City":"New York","State":"New York","StateCode":"NY","Country":"US","CountryCode":"US","ZipCode":"10002","Url":"http://www.rockwoodmusichall.com","Latitude":40.7224788,"Longitude":-73.9886667},"Artists":[{"Id":97511,"Name":"Will Evans (of Barefoot Truth)"},{"Id":98169,"Name":"Every Flavor Weather Machine"}],"TicketUrl":"http://www.shareasale.com/r.cfm?u=460319&b=234786&m=27601&afftrack=&urllink=https://www.ticketfly.com/purchase/event/1549892/tfly?utm_medium=api"}]}